{
"type": "FeatureCollection",
"crs": { "type": "name", "properties": { "name": "urn:ogc:def:crs:OGC:1.3:CRS84" } },
                                                                                
"features": [
{ "type": "Feature", "properties": { "LMID": "1000916057503", "LMCode": "305", "LMName": "五條港漁港", "LMDisID": "1000916", "Lon": 120.170825, "Lat": 23.721665, "Updatetime": "2016\/07\/27", "UniqueID": "VP0268V03" }, "geometry": { "type": "Point", "coordinates": [ 120.17082527786431, 23.721664929293127 ] } },
{ "type": "Feature", "properties": { "LMID": "1000916057504", "LMCode": "305", "LMName": "台西漁港", "LMDisID": "1000916", "Lon": 120.172624, "Lat": 23.704218, "Updatetime": "2016\/07\/27", "UniqueID": "VP0268V03" }, "geometry": { "type": "Point", "coordinates": [ 120.172624108116111, 23.704217965586679 ] } },
{ "type": "Feature", "properties": { "LMID": "1000918057505", "LMCode": "305", "LMName": "三條崙漁港", "LMDisID": "1000918", "Lon": 120.149299, "Lat": 23.657056, "Updatetime": "2016\/07\/27", "UniqueID": "VP0268V03" }, "geometry": { "type": "Point", "coordinates": [ 120.149299394051809, 23.657055904106755 ] } },
{ "type": "Feature", "properties": { "LMID": "1000919057506", "LMCode": "305", "LMName": "箔子寮漁港", "LMDisID": "1000919", "Lon": 120.136345, "Lat": 23.618991, "Updatetime": "2016\/07\/27", "UniqueID": "VP0268V03" }, "geometry": { "type": "Point", "coordinates": [ 120.136344746313057, 23.618990763912677 ] } },
{ "type": "Feature", "properties": { "LMID": "1000919057507", "LMCode": "305", "LMName": "金湖漁港", "LMDisID": "1000919", "Lon": 120.141755, "Lat": 23.572008, "Updatetime": "2016\/07\/27", "UniqueID": "VP0268V03" }, "geometry": { "type": "Point", "coordinates": [ 120.141755379807023, 23.572007780834497 ] } },
{ "type": "Feature", "properties": { "LMID": "1000919057508", "LMCode": "305", "LMName": "台子村漁港", "LMDisID": "1000919", "Lon": 120.138656, "Lat": 23.560825, "Updatetime": "2016\/07\/27", "UniqueID": "VP0268V03" }, "geometry": { "type": "Point", "coordinates": [ 120.138655729678248, 23.560825071819636 ] } },
{ "type": "Feature", "properties": { "LMID": "6800006057509", "LMCode": "305", "LMName": "竹圍漁港", "LMDisID": "6800006", "Lon": 121.241362, "Lat": 25.117125, "Updatetime": "2016\/07\/27", "UniqueID": "VP0268V03" }, "geometry": { "type": "Point", "coordinates": [ 121.24136225156667, 25.117125191974083 ] } },
{ "type": "Feature", "properties": { "LMID": "6800011057510", "LMCode": "305", "LMName": "永安漁港", "LMDisID": "6800011", "Lon": 121.011370, "Lat": 24.989539, "Updatetime": "2016\/07\/27", "UniqueID": "VP0268V03" }, "geometry": { "type": "Point", "coordinates": [ 121.011370183687063, 24.989538965051224 ] } },
{ "type": "Feature", "properties": { "LMID": "1001408057511", "LMCode": "305", "LMName": "烏石鼻漁港", "LMDisID": "1001408", "Lon": 121.417625, "Lat": 23.227895, "Updatetime": "2016\/07\/27", "UniqueID": "VP0268V03" }, "geometry": { "type": "Point", "coordinates": [ 121.417625078334709, 23.227895223885525 ] } },
{ "type": "Feature", "properties": { "LMID": "1001408057512", "LMCode": "305", "LMName": "長濱漁港", "LMDisID": "1001408", "Lon": 121.456804, "Lat": 23.313087, "Updatetime": "2016\/07\/27", "UniqueID": "VP0268V03" }, "geometry": { "type": "Point", "coordinates": [ 121.456804346343574, 23.313087381677349 ] } },
{ "type": "Feature", "properties": { "LMID": "1001407057513", "LMCode": "305", "LMName": "金樽漁港", "LMDisID": "1001407", "Lon": 121.292342, "Lat": 22.954391, "Updatetime": "2016\/07\/27", "UniqueID": "VP0268V03" }, "geometry": { "type": "Point", "coordinates": [ 121.292342384793301, 22.954391018230979 ] } },
{ "type": "Feature", "properties": { "LMID": "1001407057514", "LMCode": "305", "LMName": "新蘭漁港", "LMDisID": "1001407", "Lon": 121.209694, "Lat": 22.864497, "Updatetime": "2016\/07\/27", "UniqueID": "VP0268V03" }, "geometry": { "type": "Point", "coordinates": [ 121.209693811919919, 22.86449726233883 ] } },
{ "type": "Feature", "properties": { "LMID": "1001401057515", "LMCode": "305", "LMName": "伽藍漁港", "LMDisID": "1001401", "Lon": 121.193279, "Lat": 22.791279, "Updatetime": "2016\/07\/27", "UniqueID": "VP0268V03" }, "geometry": { "type": "Point", "coordinates": [ 121.193279171896279, 22.7912789552596 ] } },
{ "type": "Feature", "properties": { "LMID": "1001411057516", "LMCode": "305", "LMName": "綠島漁港", "LMDisID": "1001411", "Lon": 121.475538, "Lat": 22.659189, "Updatetime": "2016\/07\/27", "UniqueID": "VP0268V03" }, "geometry": { "type": "Point", "coordinates": [ 121.475537601379301, 22.659188653733452 ] } },
{ "type": "Feature", "properties": { "LMID": "1001411057517", "LMCode": "305", "LMName": "中寮漁港", "LMDisID": "1001411", "Lon": 121.473367, "Lat": 22.676756, "Updatetime": "2016\/07\/27", "UniqueID": "VP0268V03" }, "geometry": { "type": "Point", "coordinates": [ 121.473367001286192, 22.676756144580452 ] } },
{ "type": "Feature", "properties": { "LMID": "1001411057518", "LMCode": "305", "LMName": "公館漁港", "LMDisID": "1001411", "Lon": 121.493654, "Lat": 22.676120, "Updatetime": "2016\/07\/27", "UniqueID": "VP0268V03" }, "geometry": { "type": "Point", "coordinates": [ 121.493653956564913, 22.676120185398304 ] } },
{ "type": "Feature", "properties": { "LMID": "1001411057519", "LMCode": "305", "LMName": "溫泉漁港", "LMDisID": "1001411", "Lon": 121.500329, "Lat": 22.645752, "Updatetime": "2016\/07\/27", "UniqueID": "VP0268V03" }, "geometry": { "type": "Point", "coordinates": [ 121.500329009875941, 22.645752113269452 ] } },
{ "type": "Feature", "properties": { "LMID": "1001410057520", "LMCode": "305", "LMName": "大武漁港", "LMDisID": "1001410", "Lon": 120.894355, "Lat": 22.339337, "Updatetime": "2016\/07\/27", "UniqueID": "VP0268V03" }, "geometry": { "type": "Point", "coordinates": [ 120.894355382195158, 22.339336784764839 ] } },
{ "type": "Feature", "properties": { "LMID": "1001416057521", "LMCode": "305", "LMName": "開元漁港", "LMDisID": "1001416", "Lon": 121.508058, "Lat": 22.058285, "Updatetime": "2016\/07\/27", "UniqueID": "VP0268V03" }, "geometry": { "type": "Point", "coordinates": [ 121.50805804074605, 22.058284808397218 ] } },
{ "type": "Feature", "properties": { "LMID": "1001416057522", "LMCode": "305", "LMName": "朗島漁港", "LMDisID": "1001416", "Lon": 121.530561, "Lat": 22.079168, "Updatetime": "2016\/07\/27", "UniqueID": "VP0268V03" }, "geometry": { "type": "Point", "coordinates": [ 121.530561442656563, 22.079168076245764 ] } },
{ "type": "Feature", "properties": { "LMID": "6500022057523", "LMCode": "305", "LMName": "石門漁港", "LMDisID": "6500022", "Lon": 121.567161, "Lat": 25.294930, "Updatetime": "2016\/07\/27", "UniqueID": "VP0268V03" }, "geometry": { "type": "Point", "coordinates": [ 121.567160814719841, 25.294929575439596 ] } },
{ "type": "Feature", "properties": { "LMID": "6500022057524", "LMCode": "305", "LMName": "富基漁港", "LMDisID": "6500022", "Lon": 121.534194, "Lat": 25.292461, "Updatetime": "2016\/07\/27", "UniqueID": "VP0268V03" }, "geometry": { "type": "Point", "coordinates": [ 121.534194344893194, 25.292461134273992 ] } },
{ "type": "Feature", "properties": { "LMID": "6500022057525", "LMCode": "305", "LMName": "草里漁港", "LMDisID": "6500022", "Lon": 121.606096, "Lat": 25.282858, "Updatetime": "2016\/07\/27", "UniqueID": "VP0268V03" }, "geometry": { "type": "Point", "coordinates": [ 121.60609564699655, 25.282857868595784 ] } },
{ "type": "Feature", "properties": { "LMID": "6500022057526", "LMCode": "305", "LMName": "老梅漁港", "LMDisID": "6500022", "Lon": 121.545536, "Lat": 25.291590, "Updatetime": "2016\/07\/27", "UniqueID": "VP0268V03" }, "geometry": { "type": "Point", "coordinates": [ 121.545535546828091, 25.291589636352683 ] } },
{ "type": "Feature", "properties": { "LMID": "6500022057527", "LMCode": "305", "LMName": "麟山鼻漁港", "LMDisID": "6500022", "Lon": 121.510094, "Lat": 25.284006, "Updatetime": "2016\/07\/27", "UniqueID": "VP0268V03" }, "geometry": { "type": "Point", "coordinates": [ 121.510093625620357, 25.284006177842912 ] } },
{ "type": "Feature", "properties": { "LMID": "6500021057528", "LMCode": "305", "LMName": "後厝漁港", "LMDisID": "6500021", "Lon": 121.473987, "Lat": 25.256887, "Updatetime": "2016\/07\/27", "UniqueID": "VP0268V03" }, "geometry": { "type": "Point", "coordinates": [ 121.473986641370516, 25.256887127838752 ] } },
{ "type": "Feature", "properties": { "LMID": "6500027057529", "LMCode": "305", "LMName": "水尾漁港", "LMDisID": "6500027", "Lon": 121.650643, "Lat": 25.226222, "Updatetime": "2016\/07\/27", "UniqueID": "VP0268V03" }, "geometry": { "type": "Point", "coordinates": [ 121.650642552811632, 25.22622167778826 ] } },
{ "type": "Feature", "properties": { "LMID": "6500027057530", "LMCode": "305", "LMName": "磺港漁港", "LMDisID": "6500027", "Lon": 121.647713, "Lat": 25.231040, "Updatetime": "2016\/07\/27", "UniqueID": "VP0268V03" }, "geometry": { "type": "Point", "coordinates": [ 121.647713031031572, 25.231040415282962 ] } },
{ "type": "Feature", "properties": { "LMID": "6500027057531", "LMCode": "305", "LMName": "中角漁港", "LMDisID": "6500027", "Lon": 121.634464, "Lat": 25.242207, "Updatetime": "2016\/07\/27", "UniqueID": "VP0268V03" }, "geometry": { "type": "Point", "coordinates": [ 121.634464460566505, 25.242207110070126 ] } },
{ "type": "Feature", "properties": { "LMID": "6500028057532", "LMCode": "305", "LMName": "東澳漁港", "LMDisID": "6500028", "Lon": 121.696272, "Lat": 25.203774, "Updatetime": "2016\/07\/27", "UniqueID": "VP0268V03" }, "geometry": { "type": "Point", "coordinates": [ 121.696271564281346, 25.203774247883302 ] } },
{ "type": "Feature", "properties": { "LMID": "6500010057533", "LMCode": "305", "LMName": "六塊厝漁港", "LMDisID": "6500010", "Lon": 121.448892, "Lat": 25.242127, "Updatetime": "2016\/07\/27", "UniqueID": "VP0268V03" }, "geometry": { "type": "Point", "coordinates": [ 121.448892273759498, 25.242127494888052 ] } },
{ "type": "Feature", "properties": { "LMID": "6500010057534", "LMCode": "305", "LMName": "淡水第二漁港", "LMDisID": "6500010", "Lon": 121.409301, "Lat": 25.183296, "Updatetime": "2016\/07\/27", "UniqueID": "VP0268V03" }, "geometry": { "type": "Point", "coordinates": [ 121.409301154924378, 25.18329642409077 ] } },
{ "type": "Feature", "properties": { "LMID": "6500010057535", "LMCode": "305", "LMName": "淡水第一漁港", "LMDisID": "6500010", "Lon": 121.427216, "Lat": 25.175579, "Updatetime": "2016\/07\/27", "UniqueID": "VP0268V03" }, "geometry": { "type": "Point", "coordinates": [ 121.427216186977489, 25.175579356901835 ] } },
{ "type": "Feature", "properties": { "LMID": "6500028057536", "LMCode": "305", "LMName": "野柳漁港", "LMDisID": "6500028", "Lon": 121.688550, "Lat": 25.207931, "Updatetime": "2016\/07\/27", "UniqueID": "VP0268V03" }, "geometry": { "type": "Point", "coordinates": [ 121.688549837704954, 25.207930872112115 ] } },
{ "type": "Feature", "properties": { "LMID": "6500028057537", "LMCode": "305", "LMName": "萬里漁港", "LMDisID": "6500028", "Lon": 121.695293, "Lat": 25.181745, "Updatetime": "2016\/07\/27", "UniqueID": "VP0268V03" }, "geometry": { "type": "Point", "coordinates": [ 121.695293010164391, 25.181744964958227 ] } },
{ "type": "Feature", "properties": { "LMID": "6500028057538", "LMCode": "305", "LMName": "龜吼漁港", "LMDisID": "6500028", "Lon": 121.688493, "Lat": 25.195704, "Updatetime": "2016\/07\/27", "UniqueID": "VP0268V03" }, "geometry": { "type": "Point", "coordinates": [ 121.688493017638734, 25.195703588849597 ] } },
{ "type": "Feature", "properties": { "LMID": "6500023057539", "LMCode": "305", "LMName": "下罟子漁港", "LMDisID": "6500023", "Lon": 121.380903, "Lat": 25.142848, "Updatetime": "2016\/07\/27", "UniqueID": "VP0268V03" }, "geometry": { "type": "Point", "coordinates": [ 121.380903249185621, 25.142848417720359 ] } },
{ "type": "Feature", "properties": { "LMID": "6500012057540", "LMCode": "305", "LMName": "鼻頭漁港", "LMDisID": "6500012", "Lon": 121.915206, "Lat": 25.124326, "Updatetime": "2016\/07\/27", "UniqueID": "VP0268V03" }, "geometry": { "type": "Point", "coordinates": [ 121.915205656415992, 25.124326009637684 ] } },
{ "type": "Feature", "properties": { "LMID": "6500012057541", "LMCode": "305", "LMName": "深澳漁港", "LMDisID": "6500012", "Lon": 121.820265, "Lat": 25.130565, "Updatetime": "2016\/07\/27", "UniqueID": "VP0268V03" }, "geometry": { "type": "Point", "coordinates": [ 121.820264507700927, 25.130564741569628 ] } },
{ "type": "Feature", "properties": { "LMID": "6500012057542", "LMCode": "305", "LMName": "水湳洞漁港", "LMDisID": "6500012", "Lon": 121.867714, "Lat": 25.122994, "Updatetime": "2016\/07\/27", "UniqueID": "VP0268V03" }, "geometry": { "type": "Point", "coordinates": [ 121.867714156183411, 25.122994386182029 ] } },
{ "type": "Feature", "properties": { "LMID": "6500012057543", "LMCode": "305", "LMName": "南雅漁港", "LMDisID": "6500012", "Lon": 121.887386, "Lat": 25.121934, "Updatetime": "2016\/07\/27", "UniqueID": "VP0268V03" }, "geometry": { "type": "Point", "coordinates": [ 121.887386170335503, 25.121933984765633 ] } },
{ "type": "Feature", "properties": { "LMID": "6500026057544", "LMCode": "305", "LMName": "馬崗漁港", "LMDisID": "6500026", "Lon": 122.003046, "Lat": 25.014087, "Updatetime": "2016\/07\/27", "UniqueID": "VP0268V03" }, "geometry": { "type": "Point", "coordinates": [ 122.003045828402264, 25.014086800265659 ] } },
{ "type": "Feature", "properties": { "LMID": "6500026057545", "LMCode": "305", "LMName": "澳底漁港", "LMDisID": "6500026", "Lon": 121.926918, "Lat": 25.058113, "Updatetime": "2016\/07\/27", "UniqueID": "VP0268V03" }, "geometry": { "type": "Point", "coordinates": [ 121.926918183927114, 25.058112779181442 ] } },
{ "type": "Feature", "properties": { "LMID": "6500026057546", "LMCode": "305", "LMName": "龍洞南口遊艇港", "LMDisID": "6500026", "Lon": 121.917776, "Lat": 25.097493, "Updatetime": "2016\/07\/27", "UniqueID": "VP0268V03" }, "geometry": { "type": "Point", "coordinates": [ 121.91777569938904, 25.097492796555343 ] } },
{ "type": "Feature", "properties": { "LMID": "6500026057547", "LMCode": "305", "LMName": "龍洞漁港", "LMDisID": "6500026", "Lon": 121.915834, "Lat": 25.111954, "Updatetime": "2016\/07\/27", "UniqueID": "VP0268V03" }, "geometry": { "type": "Point", "coordinates": [ 121.915833623323124, 25.111953549716588 ] } },
{ "type": "Feature", "properties": { "LMID": "6500026057548", "LMCode": "305", "LMName": "福隆漁港", "LMDisID": "6500026", "Lon": 121.950819, "Lat": 25.021444, "Updatetime": "2016\/07\/27", "UniqueID": "VP0268V03" }, "geometry": { "type": "Point", "coordinates": [ 121.95081906304938, 25.021444394942932 ] } },
{ "type": "Feature", "properties": { "LMID": "6500026057549", "LMCode": "305", "LMName": "卯澳漁港", "LMDisID": "6500026", "Lon": 121.991334, "Lat": 25.012448, "Updatetime": "2016\/07\/27", "UniqueID": "VP0268V03" }, "geometry": { "type": "Point", "coordinates": [ 121.99133400236235, 25.012447550214347 ] } },
{ "type": "Feature", "properties": { "LMID": "6500026057550", "LMCode": "305", "LMName": "龍門漁港", "LMDisID": "6500026", "Lon": 121.934657, "Lat": 25.023359, "Updatetime": "2016\/07\/27", "UniqueID": "VP0268V03" }, "geometry": { "type": "Point", "coordinates": [ 121.934656577638975, 25.023359416703784 ] } },
{ "type": "Feature", "properties": { "LMID": "6500026057551", "LMCode": "305", "LMName": "澳仔漁港", "LMDisID": "6500026", "Lon": 121.929737, "Lat": 25.052807, "Updatetime": "2016\/07\/27", "UniqueID": "VP0268V03" }, "geometry": { "type": "Point", "coordinates": [ 121.929737456918133, 25.052806700868587 ] } },
{ "type": "Feature", "properties": { "LMID": "6500026057552", "LMCode": "305", "LMName": "美豔山漁港", "LMDisID": "6500026", "Lon": 121.923581, "Lat": 25.069187, "Updatetime": "2016\/07\/27", "UniqueID": "VP0268V03" }, "geometry": { "type": "Point", "coordinates": [ 121.923580643332116, 25.069186853690383 ] } },
{ "type": "Feature", "properties": { "LMID": "6500026057553", "LMCode": "305", "LMName": "和美漁港", "LMDisID": "6500026", "Lon": 121.916073, "Lat": 25.079202, "Updatetime": "2016\/07\/27", "UniqueID": "VP0268V03" }, "geometry": { "type": "Point", "coordinates": [ 121.916072912235222, 25.079201991778575 ] } },
{ "type": "Feature", "properties": { "LMID": "6700017057554", "LMCode": "305", "LMName": "北門漁港", "LMDisID": "6700017", "Lon": 120.095366, "Lat": 23.234198, "Updatetime": "2016\/07\/27", "UniqueID": "VP0268V03" }, "geometry": { "type": "Point", "coordinates": [ 120.09536648077858, 23.23419777260915 ] } },
{ "type": "Feature", "properties": { "LMID": "6700017057555", "LMCode": "305", "LMName": "蚵寮漁港", "LMDisID": "6700017", "Lon": 120.133431, "Lat": 23.285505, "Updatetime": "2016\/07\/27", "UniqueID": "VP0268V03" }, "geometry": { "type": "Point", "coordinates": [ 120.13343094108518, 23.285504827385921 ] } },
{ "type": "Feature", "properties": { "LMID": "6700016057556", "LMCode": "305", "LMName": "青山漁港", "LMDisID": "6700016", "Lon": 120.085764, "Lat": 23.189020, "Updatetime": "2016\/07\/27", "UniqueID": "VP0268V03" }, "geometry": { "type": "Point", "coordinates": [ 120.085763990315968, 23.189020101196775 ] } },
{ "type": "Feature", "properties": { "LMID": "6700015057557", "LMCode": "305", "LMName": "下山漁港", "LMDisID": "6700015", "Lon": 120.113115, "Lat": 23.137448, "Updatetime": "2016\/07\/27", "UniqueID": "VP0268V03" }, "geometry": { "type": "Point", "coordinates": [ 120.113114752443948, 23.137447770698088 ] } },
{ "type": "Feature", "properties": { "LMID": "6700035057558", "LMCode": "305", "LMName": "四草漁港", "LMDisID": "6700035", "Lon": 120.112956, "Lat": 23.023196, "Updatetime": "2016\/07\/27", "UniqueID": "VP0268V03" }, "geometry": { "type": "Point", "coordinates": [ 120.112956433093018, 23.023196030972088 ] } },
{ "type": "Feature", "properties": { "LMID": "6700036057559", "LMCode": "305", "LMName": "安平漁港", "LMDisID": "6700036", "Lon": 120.153544, "Lat": 22.990203, "Updatetime": "2016\/07\/27", "UniqueID": "VP0268V03" }, "geometry": { "type": "Point", "coordinates": [ 120.153543692287599, 22.990202510437541 ] } },
{ "type": "Feature", "properties": { "LMID": "6600012057560", "LMCode": "305", "LMName": "梧棲漁港", "LMDisID": "6600012", "Lon": 120.518868, "Lat": 24.291861, "Updatetime": "2016\/07\/27", "UniqueID": "VP0268V03" }, "geometry": { "type": "Point", "coordinates": [ 120.518868089790544, 24.29186066613687 ] } },
{ "type": "Feature", "properties": { "LMID": "6600011057561", "LMCode": "305", "LMName": "松柏漁港", "LMDisID": "6600011", "Lon": 120.616654, "Lat": 24.427818, "Updatetime": "2016\/07\/27", "UniqueID": "VP0268V03" }, "geometry": { "type": "Point", "coordinates": [ 120.616653837304852, 24.427817922958809 ] } },
{ "type": "Feature", "properties": { "LMID": "6600022057562", "LMCode": "305", "LMName": "五甲漁港", "LMDisID": "6600022", "Lon": 120.588291, "Lat": 24.390655, "Updatetime": "2016\/07\/27", "UniqueID": "VP0268V03" }, "geometry": { "type": "Point", "coordinates": [ 120.588291247043458, 24.39065483155531 ] } },
{ "type": "Feature", "properties": { "LMID": "6600022057563", "LMCode": "305", "LMName": "塭寮漁港", "LMDisID": "6600022", "Lon": 120.581271, "Lat": 24.372137, "Updatetime": "2016\/07\/27", "UniqueID": "VP0268V03" }, "geometry": { "type": "Point", "coordinates": [ 120.58127078212101, 24.372137049585206 ] } },
{ "type": "Feature", "properties": { "LMID": "6600022057564", "LMCode": "305", "LMName": "北汕漁港", "LMDisID": "6600022", "Lon": 120.585674, "Lat": 24.382939, "Updatetime": "2016\/07\/27", "UniqueID": "VP0268V03" }, "geometry": { "type": "Point", "coordinates": [ 120.585673968079277, 24.382938914599265 ] } },
{ "type": "Feature", "properties": { "LMID": "6600025057565", "LMCode": "305", "LMName": "麗水漁港", "LMDisID": "6600025", "Lon": 120.496458, "Lat": 24.199332, "Updatetime": "2016\/07\/27", "UniqueID": "VP0268V03" }, "geometry": { "type": "Point", "coordinates": [ 120.496457614827136, 24.199332427249772 ] } },
{ "type": "Feature", "properties": { "LMID": "1001402057566", "LMCode": "305", "LMName": "小港漁港", "LMDisID": "1001402", "Lon": 121.403720, "Lat": 23.157765, "Updatetime": "2016\/07\/27", "UniqueID": "VP0268V03" }, "geometry": { "type": "Point", "coordinates": [ 121.403720212318035, 23.157765004351518 ] } },
{ "type": "Feature", "properties": { "LMID": "1001402057567", "LMCode": "305", "LMName": "新港漁港", "LMDisID": "1001402", "Lon": 121.378945, "Lat": 23.096712, "Updatetime": "2016\/07\/27", "UniqueID": "VP0268V03" }, "geometry": { "type": "Point", "coordinates": [ 121.37894479106933, 23.096711750147222 ] } },
{ "type": "Feature", "properties": { "LMID": "6700016057568", "LMCode": "305", "LMName": "將軍漁港", "LMDisID": "6700016", "Lon": 120.085914, "Lat": 23.211784, "Updatetime": "2016\/07\/27", "UniqueID": "VP0268V03" }, "geometry": { "type": "Point", "coordinates": [ 120.085914488263029, 23.211784155414477 ] } },
{ "type": "Feature", "properties": { "LMID": "6400029057569", "LMCode": "305", "LMName": "蚵子寮漁港", "LMDisID": "6400029", "Lon": 120.254131, "Lat": 22.725752, "Updatetime": "2016\/07\/27", "UniqueID": "VP0268V03" }, "geometry": { "type": "Point", "coordinates": [ 120.254130809089588, 22.72575203972491 ] } },
{ "type": "Feature", "properties": { "LMID": "1001317057570", "LMCode": "305", "LMName": "東港鹽埔漁港", "LMDisID": "1001317", "Lon": 120.441104, "Lat": 22.469842, "Updatetime": "2016\/07\/27", "UniqueID": "VP0268V03" }, "geometry": { "type": "Point", "coordinates": [ 120.441104440017966, 22.469841696637047 ] } },
{ "type": "Feature", "properties": { "LMID": "1001321057571", "LMCode": "305", "LMName": "水利村漁港", "LMDisID": "1001321", "Lon": 120.513134, "Lat": 22.417658, "Updatetime": "2016\/07\/27", "UniqueID": "VP0268V03" }, "geometry": { "type": "Point", "coordinates": [ 120.513133551971919, 22.417657916179962 ] } },
{ "type": "Feature", "properties": { "LMID": "1001321057572", "LMCode": "305", "LMName": "塭豐漁港", "LMDisID": "1001321", "Lon": 120.518946, "Lat": 22.415223, "Updatetime": "2016\/07\/27", "UniqueID": "VP0268V03" }, "geometry": { "type": "Point", "coordinates": [ 120.518946362284851, 22.41522332099953 ] } },
{ "type": "Feature", "properties": { "LMID": "1001316057573", "LMCode": "305", "LMName": "枋寮漁港", "LMDisID": "1001316", "Lon": 120.592597, "Lat": 22.362801, "Updatetime": "2016\/07\/27", "UniqueID": "VP0268V03" }, "geometry": { "type": "Point", "coordinates": [ 120.592596953686552, 22.362800646432731 ] } },
{ "type": "Feature", "properties": { "LMID": "1001322057574", "LMCode": "305", "LMName": "漁福漁港", "LMDisID": "1001322", "Lon": 120.388904, "Lat": 22.347561, "Updatetime": "2016\/07\/27", "UniqueID": "VP0268V03" }, "geometry": { "type": "Point", "coordinates": [ 120.388903832346045, 22.347560908609069 ] } },
{ "type": "Feature", "properties": { "LMID": "1001322057575", "LMCode": "305", "LMName": "琉球新漁港", "LMDisID": "1001322", "Lon": 120.375064, "Lat": 22.334889, "Updatetime": "2016\/07\/27", "UniqueID": "VP0268V03" }, "geometry": { "type": "Point", "coordinates": [ 120.375064028682004, 22.334888665079859 ] } },
{ "type": "Feature", "properties": { "LMID": "1001322057576", "LMCode": "305", "LMName": "天福漁港", "LMDisID": "1001322", "Lon": 120.357503, "Lat": 22.322815, "Updatetime": "2016\/07\/27", "UniqueID": "VP0268V03" }, "geometry": { "type": "Point", "coordinates": [ 120.357503134362219, 22.32281482774215 ] } },
{ "type": "Feature", "properties": { "LMID": "1001322057577", "LMCode": "305", "LMName": "小琉球漁港", "LMDisID": "1001322", "Lon": 120.383357, "Lat": 22.353152, "Updatetime": "2016\/07\/27", "UniqueID": "VP0268V03" }, "geometry": { "type": "Point", "coordinates": [ 120.383356849938764, 22.353151619651555 ] } },
{ "type": "Feature", "properties": { "LMID": "1001322057578", "LMCode": "305", "LMName": "杉福漁港", "LMDisID": "1001322", "Lon": 120.362672, "Lat": 22.341094, "Updatetime": "2016\/07\/27", "UniqueID": "VP0268V03" }, "geometry": { "type": "Point", "coordinates": [ 120.362671531865772, 22.341094325342908 ] } },
{ "type": "Feature", "properties": { "LMID": "1001325057579", "LMCode": "305", "LMName": "楓港漁港", "LMDisID": "1001325", "Lon": 120.698874, "Lat": 22.144308, "Updatetime": "2016\/07\/27", "UniqueID": "VP0268V03" }, "geometry": { "type": "Point", "coordinates": [ 120.698873554970646, 22.144307839934925 ] } },
{ "type": "Feature", "properties": { "LMID": "1001333057580", "LMCode": "305", "LMName": "旭海漁港", "LMDisID": "1001333", "Lon": 120.892274, "Lat": 22.197871, "Updatetime": "2016\/07\/27", "UniqueID": "VP0268V03" }, "geometry": { "type": "Point", "coordinates": [ 120.892273601845318, 22.197870932197816 ] } },
{ "type": "Feature", "properties": { "LMID": "1001324057581", "LMCode": "305", "LMName": "南仁漁港", "LMDisID": "1001324", "Lon": 120.890949, "Lat": 22.087076, "Updatetime": "2016\/07\/27", "UniqueID": "VP0268V03" }, "geometry": { "type": "Point", "coordinates": [ 120.890949223328107, 22.087076018243692 ] } },
{ "type": "Feature", "properties": { "LMID": "1001324057582", "LMCode": "305", "LMName": "中山漁港", "LMDisID": "1001324", "Lon": 120.887900, "Lat": 22.119468, "Updatetime": "2016\/07\/27", "UniqueID": "VP0268V03" }, "geometry": { "type": "Point", "coordinates": [ 120.887899583598937, 22.119468147736882 ] } },
{ "type": "Feature", "properties": { "LMID": "1001304057583", "LMCode": "305", "LMName": "後壁湖漁港", "LMDisID": "1001304", "Lon": 120.744490, "Lat": 21.944761, "Updatetime": "2016\/07\/27", "UniqueID": "VP0268V03" }, "geometry": { "type": "Point", "coordinates": [ 120.744489710631683, 21.944760900794961 ] } },
{ "type": "Feature", "properties": { "LMID": "1001304057584", "LMCode": "305", "LMName": "山海漁港", "LMDisID": "1001304", "Lon": 120.711745, "Lat": 21.985933, "Updatetime": "2016\/07\/27", "UniqueID": "VP0268V03" }, "geometry": { "type": "Point", "coordinates": [ 120.711745044198437, 21.985933020592483 ] } },
{ "type": "Feature", "properties": { "LMID": "1001304057585", "LMCode": "305", "LMName": "紅柴坑漁港", "LMDisID": "1001304", "Lon": 120.715953, "Lat": 21.971901, "Updatetime": "2016\/07\/27", "UniqueID": "VP0268V03" }, "geometry": { "type": "Point", "coordinates": [ 120.715953327284296, 21.971901009324199 ] } },
{ "type": "Feature", "properties": { "LMID": "1001304057586", "LMCode": "305", "LMName": "潭仔漁港", "LMDisID": "1001304", "Lon": 120.777413, "Lat": 21.950111, "Updatetime": "2016\/07\/27", "UniqueID": "VP0268V03" }, "geometry": { "type": "Point", "coordinates": [ 120.777412836733106, 21.950111485656578 ] } },
{ "type": "Feature", "properties": { "LMID": "1001304057587", "LMCode": "305", "LMName": "香蕉灣漁港", "LMDisID": "1001304", "Lon": 120.831725, "Lat": 21.924599, "Updatetime": "2016\/07\/27", "UniqueID": "VP0268V03" }, "geometry": { "type": "Point", "coordinates": [ 120.83172490597974, 21.92459898365621 ] } },
{ "type": "Feature", "properties": { "LMID": "1001304057588", "LMCode": "305", "LMName": "興海漁港", "LMDisID": "1001304", "Lon": 120.844607, "Lat": 21.974328, "Updatetime": "2016\/07\/27", "UniqueID": "VP0268V03" }, "geometry": { "type": "Point", "coordinates": [ 120.84460723023949, 21.974327825368903 ] } },
{ "type": "Feature", "properties": { "LMID": "1000504057589", "LMCode": "305", "LMName": "青草漁港", "LMDisID": "1000504", "Lon": 120.861775, "Lat": 24.716590, "Updatetime": "2016\/07\/27", "UniqueID": "VP0268V03" }, "geometry": { "type": "Point", "coordinates": [ 120.861774653177804, 24.716589701353712 ] } },
{ "type": "Feature", "properties": { "LMID": "1000504057590", "LMCode": "305", "LMName": "龍鳳漁港", "LMDisID": "1000504", "Lon": 120.857368, "Lat": 24.699459, "Updatetime": "2016\/07\/27", "UniqueID": "VP0268V03" }, "geometry": { "type": "Point", "coordinates": [ 120.857368219767636, 24.699458666784096 ] } },
{ "type": "Feature", "properties": { "LMID": "1000504057591", "LMCode": "305", "LMName": "塭仔頭漁港", "LMDisID": "1000504", "Lon": 120.843476, "Lat": 24.666901, "Updatetime": "2016\/07\/27", "UniqueID": "VP0268V03" }, "geometry": { "type": "Point", "coordinates": [ 120.843475831844216, 24.666900938827325 ] } },
{ "type": "Feature", "properties": { "LMID": "1000506057592", "LMCode": "305", "LMName": "公司寮漁港", "LMDisID": "1000506", "Lon": 120.757508, "Lat": 24.613201, "Updatetime": "2016\/07\/27", "UniqueID": "VP0268V03" }, "geometry": { "type": "Point", "coordinates": [ 120.757507659850717, 24.613201065976455 ] } },
{ "type": "Feature", "properties": { "LMID": "1000506057593", "LMCode": "305", "LMName": "福寧漁港", "LMDisID": "1000506", "Lon": 120.747921, "Lat": 24.607095, "Updatetime": "2016\/07\/27", "UniqueID": "VP0268V03" }, "geometry": { "type": "Point", "coordinates": [ 120.747921026234394, 24.607094978650423 ] } },
{ "type": "Feature", "properties": { "LMID": "1000506057594", "LMCode": "305", "LMName": "外埔漁港", "LMDisID": "1000506", "Lon": 120.771257, "Lat": 24.650743, "Updatetime": "2016\/07\/27", "UniqueID": "VP0268V03" }, "geometry": { "type": "Point", "coordinates": [ 120.771256994414784, 24.650743464439358 ] } },
{ "type": "Feature", "properties": { "LMID": "1000503057595", "LMCode": "305", "LMName": "通霄漁港", "LMDisID": "1000503", "Lon": 120.673345, "Lat": 24.496950, "Updatetime": "2016\/07\/27", "UniqueID": "VP0268V03" }, "geometry": { "type": "Point", "coordinates": [ 120.673344545914119, 24.496950291622738 ] } },
{ "type": "Feature", "properties": { "LMID": "1000503057596", "LMCode": "305", "LMName": "白沙屯漁港", "LMDisID": "1000503", "Lon": 120.706450, "Lat": 24.570791, "Updatetime": "2016\/07\/27", "UniqueID": "VP0268V03" }, "geometry": { "type": "Point", "coordinates": [ 120.70644958508035, 24.570791212844256 ] } },
{ "type": "Feature", "properties": { "LMID": "1000503057597", "LMCode": "305", "LMName": "新埔漁港", "LMDisID": "1000503", "Lon": 120.694909, "Lat": 24.545319, "Updatetime": "2016\/07\/27", "UniqueID": "VP0268V03" }, "geometry": { "type": "Point", "coordinates": [ 120.694909496276296, 24.545319418656277 ] } },
{ "type": "Feature", "properties": { "LMID": "1000502057598", "LMCode": "305", "LMName": "苑裡漁港", "LMDisID": "1000502", "Lon": 120.632700, "Lat": 24.446326, "Updatetime": "2016\/07\/27", "UniqueID": "VP0268V03" }, "geometry": { "type": "Point", "coordinates": [ 120.632699779571226, 24.446325566871451 ] } },
{ "type": "Feature", "properties": { "LMID": "1000502057599", "LMCode": "305", "LMName": "苑港漁港", "LMDisID": "1000502", "Lon": 120.647855, "Lat": 24.461073, "Updatetime": "2016\/07\/27", "UniqueID": "VP0268V03" }, "geometry": { "type": "Point", "coordinates": [ 120.647855440676153, 24.461073320677258 ] } },
{ "type": "Feature", "properties": { "LMID": "1001705057600", "LMCode": "305", "LMName": "外木山漁港", "LMDisID": "1001705", "Lon": 121.734512, "Lat": 25.159644, "Updatetime": "2016\/07\/27", "UniqueID": "VP0268V03" }, "geometry": { "type": "Point", "coordinates": [ 121.734512051589945, 25.159644244386413 ] } },
{ "type": "Feature", "properties": { "LMID": "1001706057601", "LMCode": "305", "LMName": "大武崙漁港", "LMDisID": "1001706", "Lon": 121.707784, "Lat": 25.166831, "Updatetime": "2016\/07\/27", "UniqueID": "VP0268V03" }, "geometry": { "type": "Point", "coordinates": [ 121.707784266031126, 25.166831011042404 ] } },
{ "type": "Feature", "properties": { "LMID": "1001701057602", "LMCode": "305", "LMName": "正濱漁港", "LMDisID": "1001701", "Lon": 121.765332, "Lat": 25.153059, "Updatetime": "2016\/07\/27", "UniqueID": "VP0268V03" }, "geometry": { "type": "Point", "coordinates": [ 121.765332236293716, 25.153059233896556 ] } },
{ "type": "Feature", "properties": { "LMID": "1001701057603", "LMCode": "305", "LMName": "長潭里漁港", "LMDisID": "1001701", "Lon": 121.801199, "Lat": 25.140544, "Updatetime": "2016\/07\/27", "UniqueID": "VP0268V03" }, "geometry": { "type": "Point", "coordinates": [ 121.801199113248572, 25.140543913071156 ] } },
{ "type": "Feature", "properties": { "LMID": "1001701057604", "LMCode": "305", "LMName": "望海巷漁港", "LMDisID": "1001701", "Lon": 121.802454, "Lat": 25.137672, "Updatetime": "2016\/07\/27", "UniqueID": "VP0268V03" }, "geometry": { "type": "Point", "coordinates": [ 121.802453682791338, 25.13767191192926 ] } },
{ "type": "Feature", "properties": { "LMID": "1001701057605", "LMCode": "305", "LMName": "八斗子漁港", "LMDisID": "1001701", "Lon": 121.790236, "Lat": 25.147326, "Updatetime": "2016\/07\/27", "UniqueID": "VP0268V03" }, "geometry": { "type": "Point", "coordinates": [ 121.790235910758724, 25.147325635869436 ] } },
{ "type": "Feature", "properties": { "LMID": "6400026057606", "LMCode": "305", "LMName": "白砂崙漁港", "LMDisID": "6400026", "Lon": 120.181339, "Lat": 22.914538, "Updatetime": "2016\/07\/27", "UniqueID": "VP0268V03" }, "geometry": { "type": "Point", "coordinates": [ 120.181338945236234, 22.914537812669948 ] } },
{ "type": "Feature", "properties": { "LMID": "6400026057607", "LMCode": "305", "LMName": "興達漁港", "LMDisID": "6400026", "Lon": 120.196260, "Lat": 22.862835, "Updatetime": "2016\/07\/27", "UniqueID": "VP0268V03" }, "geometry": { "type": "Point", "coordinates": [ 120.196259850012098, 22.862835352969228 ] } },
{ "type": "Feature", "properties": { "LMID": "6400027057608", "LMCode": "305", "LMName": "永新漁港", "LMDisID": "6400027", "Lon": 120.206812, "Lat": 22.820503, "Updatetime": "2016\/07\/27", "UniqueID": "VP0268V03" }, "geometry": { "type": "Point", "coordinates": [ 120.206811806020141, 22.820502580729567 ] } },
{ "type": "Feature", "properties": { "LMID": "6400028057609", "LMCode": "305", "LMName": "彌陀漁港", "LMDisID": "6400028", "Lon": 120.233580, "Lat": 22.761505, "Updatetime": "2016\/07\/27", "UniqueID": "VP0268V03" }, "geometry": { "type": "Point", "coordinates": [ 120.233580214855124, 22.761505327808663 ] } },
{ "type": "Feature", "properties": { "LMID": "6400013057610", "LMCode": "305", "LMName": "中芸漁港", "LMDisID": "6400013", "Lon": 120.400162, "Lat": 22.483477, "Updatetime": "2016\/07\/27", "UniqueID": "VP0268V03" }, "geometry": { "type": "Point", "coordinates": [ 120.400162499000203, 22.483477132963344 ] } },
{ "type": "Feature", "properties": { "LMID": "6400013057611", "LMCode": "305", "LMName": "港埔漁港", "LMDisID": "6400013", "Lon": 120.380582, "Lat": 22.492922, "Updatetime": "2016\/07\/27", "UniqueID": "VP0268V03" }, "geometry": { "type": "Point", "coordinates": [ 120.380581562788961, 22.492922019035973 ] } },
{ "type": "Feature", "properties": { "LMID": "6400013057612", "LMCode": "305", "LMName": "汕尾漁港", "LMDisID": "6400013", "Lon": 120.413536, "Lat": 22.478878, "Updatetime": "2016\/07\/27", "UniqueID": "VP0268V03" }, "geometry": { "type": "Point", "coordinates": [ 120.413535870184319, 22.478877945161116 ] } },
{ "type": "Feature", "properties": { "LMID": "6400002057613", "LMCode": "305", "LMName": "鼓山漁港", "LMDisID": "6400002", "Lon": 120.269672, "Lat": 22.619812, "Updatetime": "2016\/07\/27", "UniqueID": "VP0268V03" }, "geometry": { "type": "Point", "coordinates": [ 120.269671859368827, 22.619811968347733 ] } },
{ "type": "Feature", "properties": { "LMID": "1000204057614", "LMCode": "305", "LMName": "石城漁港", "LMDisID": "1000204", "Lon": 121.951156, "Lat": 24.979891, "Updatetime": "2016\/07\/27", "UniqueID": "VP0268V03" }, "geometry": { "type": "Point", "coordinates": [ 121.951155932000688, 24.979890930222325 ] } },
{ "type": "Feature", "properties": { "LMID": "6400010057615", "LMCode": "305", "LMName": "中洲漁港", "LMDisID": "6400010", "Lon": 120.299836, "Lat": 22.574016, "Updatetime": "2016\/07\/27", "UniqueID": "VP0268V03" }, "geometry": { "type": "Point", "coordinates": [ 120.299836328583751, 22.574015950076102 ] } },
{ "type": "Feature", "properties": { "LMID": "6400010057616", "LMCode": "305", "LMName": "旗后漁港", "LMDisID": "6400010", "Lon": 120.270877, "Lat": 22.612936, "Updatetime": "2016\/07\/27", "UniqueID": "VP0268V03" }, "geometry": { "type": "Point", "coordinates": [ 120.270877107392607, 22.612936342837997 ] } },
{ "type": "Feature", "properties": { "LMID": "6400010057617", "LMCode": "305", "LMName": "上竹里漁港", "LMDisID": "6400010", "Lon": 120.298695, "Lat": 22.576519, "Updatetime": "2016\/07\/27", "UniqueID": "VP0268V03" }, "geometry": { "type": "Point", "coordinates": [ 120.298695145564579, 22.576519283138452 ] } },
{ "type": "Feature", "properties": { "LMID": "6400010057618", "LMCode": "305", "LMName": "旗津漁港", "LMDisID": "6400010", "Lon": 120.289020, "Lat": 22.589376, "Updatetime": "2016\/07\/27", "UniqueID": "VP0268V03" }, "geometry": { "type": "Point", "coordinates": [ 120.289019606769443, 22.589376497427452 ] } },
{ "type": "Feature", "properties": { "LMID": "1000204057619", "LMCode": "305", "LMName": "梗枋漁港", "LMDisID": "1000204", "Lon": 121.870712, "Lat": 24.903093, "Updatetime": "2016\/07\/27", "UniqueID": "VP0268V03" }, "geometry": { "type": "Point", "coordinates": [ 121.870711750347027, 24.903093328594309 ] } },
{ "type": "Feature", "properties": { "LMID": "6400011057620", "LMCode": "305", "LMName": "鳳鼻頭漁港", "LMDisID": "6400011", "Lon": 120.357695, "Lat": 22.508219, "Updatetime": "2016\/07\/27", "UniqueID": "VP0268V03" }, "geometry": { "type": "Point", "coordinates": [ 120.357695403120374, 22.508218610200743 ] } },
{ "type": "Feature", "properties": { "LMID": "1000204057621", "LMCode": "305", "LMName": "大里漁港", "LMDisID": "1000204", "Lon": 121.921492, "Lat": 24.962165, "Updatetime": "2016\/07\/27", "UniqueID": "VP0268V03" }, "geometry": { "type": "Point", "coordinates": [ 121.921492126160729, 24.962165020199564 ] } },
{ "type": "Feature", "properties": { "LMID": "1000204057622", "LMCode": "305", "LMName": "大溪第一漁港", "LMDisID": "1000204", "Lon": 121.898177, "Lat": 24.941403, "Updatetime": "2016\/07\/27", "UniqueID": "VP0268V03" }, "geometry": { "type": "Point", "coordinates": [ 121.898176819005016, 24.94140328133642 ] } },
{ "type": "Feature", "properties": { "LMID": "1000204057623", "LMCode": "305", "LMName": "桶盤堀漁港", "LMDisID": "1000204", "Lon": 121.936138, "Lat": 24.973724, "Updatetime": "2016\/07\/27", "UniqueID": "VP0268V03" }, "geometry": { "type": "Point", "coordinates": [ 121.936138215206483, 24.973724438132365 ] } },
{ "type": "Feature", "properties": { "LMID": "1000204057624", "LMCode": "305", "LMName": "蕃薯寮漁港", "LMDisID": "1000204", "Lon": 121.914777, "Lat": 24.952190, "Updatetime": "2016\/07\/27", "UniqueID": "VP0268V03" }, "geometry": { "type": "Point", "coordinates": [ 121.914777291338964, 24.952190204114686 ] } },
{ "type": "Feature", "properties": { "LMID": "1000203057625", "LMCode": "305", "LMName": "粉鳥林漁港", "LMDisID": "1000203", "Lon": 121.843764, "Lat": 24.495641, "Updatetime": "2016\/07\/27", "UniqueID": "VP0268V03" }, "geometry": { "type": "Point", "coordinates": [ 121.84376440520316, 24.495640980346991 ] } },
{ "type": "Feature", "properties": { "LMID": "1000203057626", "LMCode": "305", "LMName": "南澳漁港", "LMDisID": "1000203", "Lon": 121.820162, "Lat": 24.461689, "Updatetime": "2016\/07\/27", "UniqueID": "VP0268V03" }, "geometry": { "type": "Point", "coordinates": [ 121.820161934625617, 24.461689186306955 ] } },
{ "type": "Feature", "properties": { "LMID": "1000203057627", "LMCode": "305", "LMName": "南方澳漁港", "LMDisID": "1000203", "Lon": 121.865478, "Lat": 24.582000, "Updatetime": "2016\/07\/27", "UniqueID": "VP0268V03" }, "geometry": { "type": "Point", "coordinates": [ 121.865477553945993, 24.582000397900117 ] } },
{ "type": "Feature", "properties": { "LMID": "1001501057628", "LMCode": "305", "LMName": "花蓮漁港", "LMDisID": "1001501", "Lon": 121.637547, "Lat": 23.999778, "Updatetime": "2016\/07\/27", "UniqueID": "VP0268V03" }, "geometry": { "type": "Point", "coordinates": [ 121.63754669172647, 23.999777904127029 ] } },
{ "type": "Feature", "properties": { "LMID": "1001506057629", "LMCode": "305", "LMName": "鹽寮漁港", "LMDisID": "1001506", "Lon": 121.586205, "Lat": 23.829644, "Updatetime": "2016\/07\/27", "UniqueID": "VP0268V03" }, "geometry": { "type": "Point", "coordinates": [ 121.586204611953349, 23.829643784433131 ] } },
{ "type": "Feature", "properties": { "LMID": "1000406057630", "LMCode": "305", "LMName": "坡頭漁港", "LMDisID": "1000406", "Lon": 120.971475, "Lat": 24.927265, "Updatetime": "2016\/07\/27", "UniqueID": "VP0268V03" }, "geometry": { "type": "Point", "coordinates": [ 120.971474999571683, 24.927264999879867 ] } },
{ "type": "Feature", "properties": { "LMID": "1001009057631", "LMCode": "305", "LMName": "鰲鼓漁港", "LMDisID": "1001009", "Lon": 120.169205, "Lat": 23.491917, "Updatetime": "2016\/07\/27", "UniqueID": "VP0268V03" }, "geometry": { "type": "Point", "coordinates": [ 120.169204597913904, 23.491917018355764 ] } },
{ "type": "Feature", "properties": { "LMID": "1001009057632", "LMCode": "305", "LMName": "副瀨漁港", "LMDisID": "1001009", "Lon": 120.169016, "Lat": 23.490334, "Updatetime": "2016\/07\/27", "UniqueID": "VP0268V03" }, "geometry": { "type": "Point", "coordinates": [ 120.169016205233788, 23.490333679156038 ] } },
{ "type": "Feature", "properties": { "LMID": "1001009057633", "LMCode": "305", "LMName": "塭港漁港", "LMDisID": "1001009", "Lon": 120.143194, "Lat": 23.467964, "Updatetime": "2016\/07\/27", "UniqueID": "VP0268V03" }, "geometry": { "type": "Point", "coordinates": [ 120.143193973123402, 23.467964269035861 ] } },
{ "type": "Feature", "properties": { "LMID": "1001009057634", "LMCode": "305", "LMName": "下庄漁港", "LMDisID": "1001009", "Lon": 120.146191, "Lat": 23.464990, "Updatetime": "2016\/07\/27", "UniqueID": "VP0268V03" }, "geometry": { "type": "Point", "coordinates": [ 120.146190703937918, 23.464990106708115 ] } },
{ "type": "Feature", "properties": { "LMID": "1001009057635", "LMCode": "305", "LMName": "東石漁港", "LMDisID": "1001009", "Lon": 120.137610, "Lat": 23.450379, "Updatetime": "2016\/07\/27", "UniqueID": "VP0268V03" }, "geometry": { "type": "Point", "coordinates": [ 120.137610292081376, 23.45037858670247 ] } },
{ "type": "Feature", "properties": { "LMID": "1001009057636", "LMCode": "305", "LMName": "網寮漁港", "LMDisID": "1001009", "Lon": 120.147340, "Lat": 23.437935, "Updatetime": "2016\/07\/27", "UniqueID": "VP0268V03" }, "geometry": { "type": "Point", "coordinates": [ 120.147339545583577, 23.437935459853634 ] } },
{ "type": "Feature", "properties": { "LMID": "1001003057637", "LMCode": "305", "LMName": "布袋漁港", "LMDisID": "1001003", "Lon": 120.157130, "Lat": 23.387616, "Updatetime": "2016\/07\/27", "UniqueID": "VP0268V03" }, "geometry": { "type": "Point", "coordinates": [ 120.15712964541683, 23.387616306747191 ] } },
{ "type": "Feature", "properties": { "LMID": "1001003057638", "LMCode": "305", "LMName": "好美里漁港", "LMDisID": "1001003", "Lon": 120.125413, "Lat": 23.341429, "Updatetime": "2016\/07\/27", "UniqueID": "VP0268V03" }, "geometry": { "type": "Point", "coordinates": [ 120.125413481447026, 23.341428840568597 ] } },
{ "type": "Feature", "properties": { "LMID": "1000723057639", "LMCode": "305", "LMName": "王功漁港", "LMDisID": "1000723", "Lon": 120.324515, "Lat": 23.968832, "Updatetime": "2016\/07\/27", "UniqueID": "VP0268V03" }, "geometry": { "type": "Point", "coordinates": [ 120.324515257972848, 23.96883236831917 ] } },
{ "type": "Feature", "properties": { "LMID": "1001304057640", "LMCode": "305", "LMName": "鼻頭漁港", "LMDisID": "1001304", "Lon": 120.848227, "Lat": 21.904912, "Updatetime": "2016\/07\/27", "UniqueID": "VP0268V03" }, "geometry": { "type": "Point", "coordinates": [ 120.84822725868105, 21.904911905859819 ] } },
{ "type": "Feature", "properties": { "LMID": "6400011057641", "LMCode": "305", "LMName": "小港臨海新村漁港", "LMDisID": "6400011", "Lon": 120.343706, "Lat": 22.544650, "Updatetime": "2016\/07\/27", "UniqueID": "VP0268V03" }, "geometry": { "type": "Point", "coordinates": [ 120.343705683370672, 22.544649755082162 ] } },
{ "type": "Feature", "properties": { "LMID": "1000204057642", "LMCode": "305", "LMName": "大溪第二漁港", "LMDisID": "1000204", "Lon": 121.899968, "Lat": 24.940588, "Updatetime": "2016\/07\/27", "UniqueID": "VP0268V03" }, "geometry": { "type": "Point", "coordinates": [ 121.89996826222557, 24.9405880000362 ] } },
{ "type": "Feature", "properties": { "LMID": "1001508057643", "LMCode": "305", "LMName": "石梯漁港", "LMDisID": "1001508", "Lon": 121.505695, "Lat": 23.495224, "Updatetime": "2016\/07\/27", "UniqueID": "VP0268V03" }, "geometry": { "type": "Point", "coordinates": [ 121.505695131425227, 23.495224496413414 ] } },
{ "type": "Feature", "properties": { "LMID": "1001802057644", "LMCode": "305", "LMName": "新竹漁港", "LMDisID": "1001802", "Lon": 120.922373, "Lat": 24.847664, "Updatetime": "2016\/07\/27", "UniqueID": "VP0268V03" }, "geometry": { "type": "Point", "coordinates": [ 120.922372872909818, 24.847664114307463 ] } },
{ "type": "Feature", "properties": { "LMID": "1001803057645", "LMCode": "305", "LMName": "海山漁港", "LMDisID": "1001803", "Lon": 120.902547, "Lat": 24.764739, "Updatetime": "2016\/07\/27", "UniqueID": "VP0268V03" }, "geometry": { "type": "Point", "coordinates": [ 120.902546788703376, 24.76473892526127 ] } },
{ "type": "Feature", "properties": { "LMID": "1001323057646", "LMCode": "305", "LMName": "海口漁港", "LMDisID": "1001323", "Lon": 120.714629, "Lat": 22.091025, "Updatetime": "2016\/07\/27", "UniqueID": "VP0268V03" }, "geometry": { "type": "Point", "coordinates": [ 120.714628855237493, 22.091025052863927 ] } },
{ "type": "Feature", "properties": { "LMID": "1001323057647", "LMCode": "305", "LMName": "後灣漁港", "LMDisID": "1001323", "Lon": 120.696004, "Lat": 22.041678, "Updatetime": "2016\/07\/27", "UniqueID": "VP0268V03" }, "geometry": { "type": "Point", "coordinates": [ 120.696003506256829, 22.041678223371377 ] } },
{ "type": "Feature", "properties": { "LMID": "1001009057648", "LMCode": "305", "LMName": "白水湖漁港", "LMDisID": "1001009", "Lon": 120.152845, "Lat": 23.425501, "Updatetime": "2016\/07\/27", "UniqueID": "VP0268V03" }, "geometry": { "type": "Point", "coordinates": [ 120.152844549436509, 23.425500944013379 ] } },
{ "type": "Feature", "properties": { "LMID": "1000506057649", "LMCode": "305", "LMName": "南港漁港", "LMDisID": "1000506", "Lon": 120.713135, "Lat": 24.588567, "Updatetime": "2016\/07\/27", "UniqueID": "VP0268V03" }, "geometry": { "type": "Point", "coordinates": [ 120.713134950917265, 24.588566971388673 ] } },
{ "type": "Feature", "properties": { "LMID": "1000204057650", "LMCode": "305", "LMName": "烏石漁港", "LMDisID": "1000204", "Lon": 121.836080, "Lat": 24.867994, "Updatetime": "2016\/07\/27", "UniqueID": "VP0268V03" }, "geometry": { "type": "Point", "coordinates": [ 121.836080488823541, 24.867993971744454 ] } },
{ "type": "Feature", "properties": { "LMID": "6400009057651", "LMCode": "305", "LMName": "前鎮漁港", "LMDisID": "6400009", "Lon": 120.313641, "Lat": 22.569640, "Updatetime": "2016\/07\/27", "UniqueID": "VP0268V03" }, "geometry": { "type": "Point", "coordinates": [ 120.313640830260169, 22.569640179950397 ] } },
{ "type": "Feature", "properties": { "LMID": "1000702057652", "LMCode": "305", "LMName": "崙尾灣漁港", "LMDisID": "1000702", "Lon": 120.420488, "Lat": 24.080749, "Updatetime": "2016\/07\/27", "UniqueID": "VP0268V03" }, "geometry": { "type": "Point", "coordinates": [ 120.420487886806541, 24.080749165841382 ] } },
{ "type": "Feature", "properties": { "LMID": "1001701057653", "LMCode": "305", "LMName": "基隆港", "LMDisID": "1001701", "Lon": 121.748000, "Lat": 25.138400, "Updatetime": "2016\/07\/27", "UniqueID": "VP0268V03" }, "geometry": { "type": "Point", "coordinates": [ 121.748, 25.138400000359752 ] } },
{ "type": "Feature", "properties": { "LMID": "6400002057654", "LMCode": "305", "LMName": "高雄港", "LMDisID": "6400002", "Lon": 120.277890, "Lat": 22.613000, "Updatetime": "2016\/07\/27", "UniqueID": "VP0268V03" }, "geometry": { "type": "Point", "coordinates": [ 120.27789000002349, 22.613000000449688 ] } },
{ "type": "Feature", "properties": { "LMID": "1001501057655", "LMCode": "305", "LMName": "花蓮港", "LMDisID": "1001501", "Lon": 121.635000, "Lat": 24.001000, "Updatetime": "2016\/07\/27", "UniqueID": "VP0268V03" }, "geometry": { "type": "Point", "coordinates": [ 121.63499999965029, 24.001000000049999 ] } },
{ "type": "Feature", "properties": { "LMID": "6600014057656", "LMCode": "305", "LMName": "臺中港", "LMDisID": "6600014", "Lon": 120.508333, "Lat": 24.280000, "Updatetime": "2016\/07\/27", "UniqueID": "VP0268V03" }, "geometry": { "type": "Point", "coordinates": [ 120.508332999668255, 24.279999999600363 ] } },
{ "type": "Feature", "properties": { "LMID": "1000203057657", "LMCode": "305", "LMName": "蘇澳港", "LMDisID": "1000203", "Lon": 121.857890, "Lat": 24.597000, "Updatetime": "2016\/07\/27", "UniqueID": "VP0268V03" }, "geometry": { "type": "Point", "coordinates": [ 121.8578899999236, 24.596999999650336 ] } },
{ "type": "Feature", "properties": { "LMID": "6700036057658", "LMCode": "305", "LMName": "安平港", "LMDisID": "6700036", "Lon": 120.151111, "Lat": 22.991000, "Updatetime": "2016\/07\/27", "UniqueID": "VP0268V03" }, "geometry": { "type": "Point", "coordinates": [ 120.15111100007266, 22.991000000449731 ] } },
{ "type": "Feature", "properties": { "LMID": "6500023057659", "LMCode": "305", "LMName": "臺北港", "LMDisID": "6500023", "Lon": 121.377811, "Lat": 25.154000, "Updatetime": "2016\/07\/27", "UniqueID": "VP0268V03" }, "geometry": { "type": "Point", "coordinates": [ 121.37781099957806, 25.154000000299845 ] } }
]
}
